{"array":[{"organization":"Abcd Early Headstart","address":"198 Geneva Ave, Dorchester, MA 02121","website":"","phone":"617-929-6200","fax":"","email":"","languages":"English, Portuguese, Spanish & Other","information":"Services: Full Time, Cost: N/A","category":"Child Care and Resources","lat":42.3055504,"lng":-71.0756932},{"organization":"ABCD Walnut Grove Headstart","address":"22 Elm Hill Ave, Dorchester, MA 02121","website":"www.childcarechoicesofboston.org","phone":"617-445-8202","fax":"","email":"","languages":"English, French, Spanish","information":"Services: Full-Time and Part-Time, Cost:N/A","category":"Child Care and Resources","lat":42.3122537,"lng":-71.0842323},{"organization":"Above & Beyond SACC Program @ Morland Street","address":"95 Morland St, Roxbury, MA 02119","website":"www.brookviewhouse.org","phone":"617-265-2965","fax":"","email":"","languages":"English, French, Portuguese & Spanish","information":"Services: Full-Time and Part-Time; After School, Cost:N/A","category":"Child Care and Resources","lat":42.3229347,"lng":-71.0775407},{"organization":"Aspire (Expanded Learning Program)","address":"Lilla G. Fredrick Middle School 270 Columbia RD. Dorchester MA, 02121","website":"","phone":"Susan Lovett: 617-778-4023","fax":"","email":"","languages":"English","information":"Services: After School Program; 3:40-3:55pm. Welcome Snack; 4:00-5:00pm. Homework Help & Tutoring; 5:00-6:00pm. Enrichment Activities. Cost: $50/year","category":"Child Care and Resources","lat":42.3091746,"lng":-71.0755999},{"organization":"ASPIRE After School Program/ Alliance for Inclusion & Prevention","address":"207 Columbia RD. Dorchester, MA 02121","website":"www.childcarechoicesofboston.org","phone":"617-635-1650","fax":"","email":"","languages":"English","information":"Services: Part-Time. Cost: N/A","category":"Child Care and Resources","lat":42.3069749,"lng":-71.07655919999999},{"organization":"Au Co Preschool","address":"42 Charles St Dorcester, MA 02121","website":"www.viwraid.org","phone":"617-822-3717","fax":"","email":"","languages":"English & Vietnamese","information":"Services Full-Time and Part-Time. Cost: N/A","category":"Child Care and Resources","lat":42.2999342,"lng":-71.06342870000002},{"organization":"Basics Tutorial-Mather School","address":"1 Parish St, Dorchester MA 02122","website":"www.bellnational.org","phone":"617-635-8789","fax":"","email":"","languages":"English, Spanish & Vietnamese","information":"Services: Part-Time; After School. Cost: N/A","category":"Child Care and Resources","lat":42.308294,"lng":-71.061005},{"organization":"Basics Tutorial-Thomas Kenny School","address":"19 Oakton Av Dorchester, MA 02122","website":"www.bellnational.org","phone":"617-963-6277","fax":"","email":"","languages":"English, Spanish & Other","information":"Services: Full-Time; After School. Cost: N/A","category":"Child Care and Resources","lat":42.2865064,"lng":-71.0532316},{"organization":"Vird Street Cmty Ctr. ASP @ Higginson-Lewis K2-8 Before and After","address":"131 Walnut Ave Roxbury,Ma 02119","website":"www.childcarechoicesofboston.org","phone":"617-282-6110","fax":"","email":"","languages":"English & Other","information":"Services: Full-Time; Before School; After School. Cost: N/A","category":"Child Care and Resources","lat":42.3208269,"lng":-71.08694539999999},{"organization":"Boston Debate League","address":"Boston Debate League 54 Canal Street 4th Floor, Boston MA 20114","website":"www.bostondebate.org","phone":"857-350-4274","fax":"","email":"info@bostondebate.org","languages":"English","information":" After School Debate League lncludes students from highest to lowest achieving, students with a master of the English language and English language learners. Helps students with critically thinking, literacy, civic awareness, self-efficacy and resiliency. Cost: N/A","category":"Child Care and Resources"},{"organization":"Boys and Girls Club @ Yawkey Club","address":"115 Warren St, Roxbury MA 02119","website":"www.bgcb.org","phone":"617-427-6050","fax":"","email":"","languages":"English & Spanish","information":"Services: Full-Time and Part-Time; After School, Cost:N/A. Locations: clubs, yawkey, cfm","category":"Child Care and Resources","lat":42.3267945,"lng":-71.0837609},{"organization":"Bradshaw Children's Learning Program","address":"64 Bradshaw St Dorchester MA 02121","website":"www.childcarechoicesofboston.org","phone":"617-282-2327","fax":"","email":"","languages":"English, Chinese, French, Portuguese & Spanish","information":"Services: Full Time. Cost:N/A","category":"Child Care and Resources","lat":42.2980964,"lng":-71.0836753},{"organization":"Children's Services of Roxbury Early Care & Education Center","address":"520 Dudley St Roxbury MA 02119","website":"www.csrox.org","phone":"617-445-6655","fax":"","email":"","languages":"English & Spanish","information":"Services: Full-Time. Cost: N/A","category":"Child Care and Resources","lat":42.3225768,"lng":-71.0725362},{"organization":"College Bound Dorchester out of school time at Holland Elementary","address":"85 Olney St Dorchester MA, 02121","website":"www.childcarechoicesofboston.org","phone":"339-235-2253","fax":"","email":"","languages":"English & Spanish","information":"Services: Full-Time; Part-Time. Cost:N/A","category":"Child Care and Resources","lat":42.3060151,"lng":-71.07360489999999},{"organization":"Crispus Attucks Children's Center","address":"105 Crawford St, Dorchester MA 02121","website":"www.cripus-attucks.org","phone":"617-445-1420","fax":"","email":"","languages":"English, French, Greek,Spanish & Other","information":"Services: Full-Time. Cost: N/A","category":"Child Care and Resources","lat":42.3138588,"lng":-71.0902036},{"organization":"Dimock Early Intervention Program","address":"1800 Columbus St, Roxbury MA 02119","website":"www.dimock.org","phone":"617-442-8800","fax":"","email":"","languages":"English,French,Portuguese,Spanish & Other","information":"Services: Full-Time and Part-TIme; Before School;Ater School. Cost:N/A","category":"Early Intervention","lat":42.3187529,"lng":-71.0980222},{"organization":"Dorchester Head-Start Ave","address":"198 Geneva Ave Dorchester MA 02121","website":"","phone":"617-929-6211","fax":"","email":"","languages":"English, French, Portuguese, Spanish & Vietnamese","information":"Services: Full-Time and Part-Time. Cost: N/A","category":"Child Care and Resources","lat":42.3055504,"lng":-71.0756932},{"organization":"Gertrude E. Townsend Headstart","address":"198 Geneva Ave Dorchester MA 02121","website":"","phone":"617-288-9150","fax":"","email":"","languages":"English, French, Portuguese & Spanish","information":"Services: Full-Time and Part-Time","category":"Child Care and Resources","lat":42.3055504,"lng":-71.0756932},{"organization":"Goodwill Mellon Academy","address":"1010 Harrison Ave Roxbury MA 02119","website":"","phone":"617-541-1434","fax":"","email":"","languages":"English","information":"Services: N/A. Cost:N/A","category":"","lat":42.3308653,"lng":-71.079945},{"organization":"Hawthorne After School Program","address":"9 Fulda St Roxbury MA 02119","website":"","phone":"617-427-0613","fax":"","email":"","languages":"English & Spanish","information":"Services: Full-Time;After School. Cost:N/A","category":"Child Care and Resources","lat":42.3233123,"lng":-71.0923711},{"organization":"Holland Community Center","address":"88 Olney St Dorchester MA 02121","website":"imajinetthat.com","phone":"617-635-5144 -or- 781-929-2858","fax":"","email":"BCYFHolland@boston.gov","languages":"English & Spanish","information":"Services: Full-Time; After School. Cost: N/A","category":"Community Center","lat":42.30533,"lng":-71.07273599999999},{"organization":"Huntington Avenue YMCA @ King K-8 School","address":"77 Lawrence Ave Dorchester MA 02121","website":"ymcaboston.org/huntington","phone":"617-595-6554","fax":"","email":"","languages":"English","information":"Services: Part-Time; After School. Cost: N/A","category":"","lat":42.311055,"lng":-71.076481},{"organization":"Huntington Avenue YMCA @ Mason School","address":"150 Norfolk Ave Roxbury MA 02119","website":"www.ymcaboston.org","phone":"617-620-9077","fax":"","email":"","languages":"English","information":"Services: Full-Time; After School. Cost: N/A","category":"","lat":42.3261263,"lng":-71.0712839},{"organization":"Latino STEM Alliance","address":"","website":"www.latinostem.org","phone":"","fax":"","email":"info@latinostem.org","languages":"English & Spanish","information":"After-School Robotics Programming. The students learn to build and program a robot. Field Trips, hands on experience with engineering and the design process Participate in the Inter-School robotics competition and science expo. Cost: N/A","category":""},{"organization":"Leahy Holloron Community Center Preschool Program","address":"1 Worrell St Dorchester MA 02121","website":"www.childcarechoicesofboston.org","phone":"617-348-6465","fax":"","email":"","languages":"English","information":"Services: Part-Time. Cost: N/A","category":"Community Center","lat":42.2932797,"lng":-71.0490224},{"organization":"Little Sprouts LLC","address":"815 Albany St Boston MA, 02119","website":"www.littlesprouts.com","phone":"617-708-1714","fax":"","email":"","languages":"English & Spanish","information":"Services Full-Time and Part-Time; Emergency Cost: N/A","category":"Child Care and Resources","lat":42.3323048,"lng":-71.0755595},{"organization":"N.I.C.E. Inc","address":"2990 Washington St Roxbury MA 02119","website":"www.niceinc.org","phone":"617-445-3766","fax":"","email":"","languages":"English, Portuguese & Spanish","information":"Services: Full-Time. Cost: N/A","category":"","lat":42.3173634,"lng":-71.0964321},{"organization":"Neponset Child Care","address":"281a Neponset Ave Dorchester MA 02122","website":"www.childcarechoicesofboston.org","phone":"617-265-2665","fax":"","email":"","languages":"English","information":"Services: Full-Time. Cost: N/A","category":"Child Care and Resrouces","lat":42.2894026,"lng":-71.0480427},{"organization":"Paige Academy","address":"26-40 Highland Ave Roxbury MA 02119","website":"www.paigeacademy.org","phone":"617-442-5419","fax":"","email":"","languages":"English, French, Portuguese, Spanish & Other","information":"Services: Full-Time and Part-Time' Before School; After School","category":"Child Care and Resrouces","lat":42.32923359999999,"lng":-71.09328839999999},{"organization":"Roxbury Weston Programs Inc. SACC/CATCH","address":"81 Walnut Ave Roxbury MA 02119","website":"www.childcarechoicesofboston.org","phone":"617-427-2086","fax":"","email":"","languages":"English","information":"Services: Full-Time;After School. Cost:N/A","category":"","lat":42.3224254,"lng":-71.085304},{"organization":"Roxbury YMCA Child Care Center","address":"285 Martin Luther Kind Blvd Roxbury, MA 02119","website":"www.childcarechoicesofboston.org","phone":"617-427-5300","fax":"","email":"","languages":"English & Spanish","information":"Services: Full-Time;After School. Cost:N/A","category":"Child Care and Resources","lat":42.317764,"lng":-71.0828974},{"organization":"Sunnyside Day Nursery","address":"11 Mount Pleasant Ave Roxbury, MA 02119","website":"www.nurturyboston.org","phone":"617-442-8800","fax":"","email":"","languages":"English,Portuguese & Spanish","information":"Services:Full-Time. Cost:N/A","category":"Child Care and Resources","lat":42.3278692,"lng":-71.079734},{"organization":"The Abantwana Learning Center","address":"30 Dimock St Roxbury MA 02119","website":"www.dimock.org","phone":"617-427-8800","fax":"","email":"","languages":"English, French, Portuguese, Spanish & Other","information":"Services: Full-Time' Before School. Cost: N/A","category":"","lat":42.3192027,"lng":-71.0962935},{"organization":"The Edgerley Family Community Children's Center","address":"1705 Columbus Ave Roxbury, MA 02119","website":"www.horizonschildren.org","phone":"617-445-1480","fax":"","email":"","languages":"English","information":"Services: Full-Time and Part-Time. Cost: N/A","category":"Child Care and Resrouces. Community Center","lat":42.3202832,"lng":-71.09881349999999},{"organization":"The Gate House Head Start Program","address":"56 Dimock St Roxbury MA 02119","website":"www.dimock.org","phone":"617-442-8800","fax":"","email":"","languages":"English, French, Portuguese, Spanish & Other","information":"Services: Full-Time. Cost: N/A","category":"Child Care and Resrouces","lat":42.318961,"lng":-71.097433},{"organization":"Twelfth Baptist Curch Christian Preschool","address":"150-160 Warren St Roxbury MA 02119","website":"www.tbcboston.org","phone":"617-427-0273","fax":"","email":"","languages":"English, French & Other","information":"Services: Full-Time; After School. Cost: N/A","category":"Child Care and Resources","lat":42.3253335,"lng":-71.0828196},{"organization":"UCCC @ Ellis","address":"302 Walnut Ave Roxbury, MA 02119","website":"www.birdstreet.org","phone":"617-635-8257","fax":"","email":"","languages":"English & Other","information":"Services: Part-Time; After School. Cost: N/A","category":"","lat":42.3169104,"lng":-71.0922791},{"organization":"UCCC @ Nathan Hale","address":"51 Cedar St Roxbury MA 02119","website":"www.birdstreet.org","phone":"617-282-6110","fax":"","email":"","languages":"English & Other","information":"Services: Part-Time; After School. Cost: N/A","category":"","lat":42.3255446,"lng":-71.09108599999999},{"organization":"Vine St Community Centers - SACC Program","address":"339 Dudley St Roxbury MA 02119","website":"","phone":"617-635-1285","fax":"","email":"","languages":"English & Spanish","information":"Services; Full-Time and Part-Time; After School; Emergency","category":"Community Center","lat":42.3267858,"lng":-71.0767228},{"organization":"Yawkey Konbit Kreyol Center","address":"185 Columbia Rd Dorchester MA 02121","website":"www.ccab.org","phone":"617-506-6930","fax":"","email":"","languages":"English, French, Italian, Portuguese & Other","information":"Services: Full-Time and Part-Time","category":"","lat":42.3062973,"lng":-71.07688139999999},{"organization":"Action for Boston Community Development (ABCD)","address":"Central Office: 178 Tremont Street, Boston MA 02111","website":"bostonabcd.org","phone":"617-348-6000","fax":"","email":"","languages":"English","information":"Adult Education and Training, Child Care Choices of Boston, Educator Provider Supoort (EPS) Grant, Elder Services, Energy and Fuel Services, Head Start & Early Childhood Education, Health Services, Housing, Immigrantion Services, Jobs and Job Training, Financial Futures Initiative, Nutrition and Food, Yout Programs and Other Services. Cost: N/A","category":"Community Center","lat":42.3528925,"lng":-71.0640985},{"organization":"Codman Square Computer Learning Center","address":"108 Columbia Rd Dorchester MA 02124","website":"","phone":"617-606-7078","fax":"","email":"prince@scndc.com","languages":"English","information":"Free access to computer stations with internet. Teach basic computer skills, career services, (K-12 tutoring), Adult Education, Video Production Techniques. Cost: N/A","category":"Community Center","lat":42.3054253,"lng":-71.0808552},{"organization":"Dorchester YMCA Columbia I&II","address":"102 Columbia Rd, Boston, MA 02121","website":"ymcaboston.org/dorchester","phone":"617-445-9622","fax":"","email":"","languages":"English","information":"This YMCA branch is home to a dedicated computer lab staffed by Boston Public Schools, which offers at-risk youth the opportunity to make up high school credits. Cost: N/A","category":"Community Center","lat":42.3052258,"lng":-71.0811482},{"organization":"Neighborhood Development Corporation of-Grove Hall","address":"7 Chene Street Dorchester MA 02121","website":"www.grovehallndc.org","phone":"617-445-2284","fax":"","email":"contact@grovehallndc.org","languages":"English","information":"The MOM program which helps men and women develop computer skills: resume writing, search for online employment, training for computer based job skills. Afterschool program computer training software: reading, math, scienc, social studies, phonetics. Cost: N/A","category":"Community Center"},{"organization":"Osiris Family Insitiute","address":"184 Dudley Street, Roxbury MA 02119","website":"www.osirisinsititute.com","phone":"617-4442-2002","fax":"","email":"","languages":"English","information":"Empowering Clients to become healthy vibrant families.Cost:N/A","category":"Community Center","lat":42.32875,"lng":-71.0820409},{"organization":"Roxbury Multi-Service Center","address":"434 Warren Street Dorchester MA 02121","website":"www.roxmulti.com","phone":"617-989-0292","fax":"","email":"","languages":"English","information":"Roxbury Multi-Service Center, Inc (EMSC) provides behavioral health, education programs and housing. Cost: N/A","category":"Community Center","lat":42.3161615,"lng":-71.08266549999999},{"organization":"SCI Social Capital Inc.","address":"165M New Boston Street, suite 23 Woburn, MA 01801","website":"www.socialcapitialinc.org","phone":"781-935-2244","fax":"","email":"","languages":"English","information":"They train youth leaders and community leaders on how to build social capitial. They have a website that collects information about community events, volunteer opportunities, local resources. Cost:N/A","category":"Community Center","lat":42.5095592,"lng":-71.1433069},{"organization":"VietAID (Vietnamese American Initiative for Development)","address":"Vietnamese American Community Center 42 Charles St, Suite E Dorchester MA 02122","website":"www.vietaid.org","phone":"617-822-3717/ Hue 612-636-1768","fax":"","email":"","languages":"Vietnamese & English","information":"Real Estate, Tod Strategy, 1st Time Home Buying Foreclosure, Sanyo Digital Camera, Au Co Preschool, Family Child Care, After School, Nail Salon, Energy Saving, Small Business. Cost:N/A","category":"Community Center","lat":42.2999342,"lng":-71.06342870000002},{"organization":"Vietnamese American Civic Association (VACA)","address":"42 Charles Street Dorchester MA 02122 (Viet-AID building)","website":"mydorchester.org/civic/vaca","phone":"617-288-7344","fax":"","email":"","languages":"Vietnamese & English","information":"Engaging Youth, Building Bridges, Developing Community Leaders & Connecting Citizens.","category":"Community Center","lat":42.2999342,"lng":-71.06342870000002},{"organization":"Familu Autism Center","address":"789 Clapboardtree S. Westwood MA 02090","website":"www.arcsouthnorfollk.org","phone":"781-762-4001","fax":"","email":"","languages":"English","information":"Contact Name: Brian Clark- Director. Alec-training-specialized training for public safety, law enforcement and medical personal. They offer support services, seminars, training, workshops, paretn-to-parent Networking. Cost:N/A","category":"Disabilities & Special Needs","lat":42.213179,"lng":-71.19994330000002},{"organization":"Boston Student Rights","address":"","website":"http://www.bostonstudentsrights.org","phone":"","fax":"","email":"","languages":"English","information":"App designed by and for Boston Public Schools students and families to help understand their rights, suspension and expulsion policies, responsibilities, stay connected to other students in the district. Also more resources are available in the app. Cost: Free","category":"Family Support"},{"organization":"Catholic Charities/ YAWKEY CENTER","address":"YAWKEY CENTER- Dorchester Catholic Charities Greater Boston 185 Columbia Road, Dorchester MA 02121","website":"www.ccab.org","phone":"617-506-6600","fax":"","email":"","languages":"English/ Cape Verdean & Cerole","information":"Child Care, GED, Nursing Assistants, ESL, Parent Aide, Young Parent Programs, SNAP, WIC,SSI. Counseling services, Community Interpreter Services, Refugee and Immigrant Services. Cost:N/A","category":"Family Support","lat":42.3062987,"lng":-71.0769321},{"organization":"Daily Table","address":"450 Washington St. Dorchester MA 02124","website":"www.dailytable.org","phone":"617-506-0219","fax":"","email":"","languages":"English","information":"Variety of Foods prepared fresh daily. Cost: Low cost.","category":"Family Support","lat":42.2958712,"lng":-71.07185849999999},{"organization":"Food & Nutrition Services- Boston Public Schools","address":"370 Columbia Rd, Boston MA 02125","website":"www.bostonpublicschools.org/fns","phone":"617-635-9144","fax":"","email":"","languages":"English","information":"Offers summer and afterschool meal programs. Cost:N/A","category":"Family Support","lat":42.3112269,"lng":-71.0714119},{"organization":"Furniture Bank","address":"15 Bubier Street, Lynn MA","website":"www.mahomeless.org","phone":"781-595-7570x11","fax":"","email":"","languages":"English","information":"Provides furniture for families in need. Family must bring a photo ID, and the ability to trandport furniture. Cost:N/A","category":"Family Support","lat":42.4566124,"lng":-70.94940199999999},{"organization":"Metro South Insurance","address":"835 Dorchester Ave, Dorchester, MA 02125","website":"www.metrosouthinsurance.com","phone":"617-287-8888 -or- 617-438-8768","fax":"","email":"jhonnguyen@metrosouthinsurance.com","languages":"Vietnamese & English","information":"John Nguyen, Producer/Principle","category":"Family Support","lat":42.3221157,"lng":-71.05693430000001},{"organization":"Project Bread","address":"Project Bread 145 Border Street, East Boston, MA 02128","website":"http://www.projectbread.org","phone":"Hotline: 1-800-645-8333","fax":"","email":"","languages":"English, Spanish, Chinese, Korean, Russian, Somali, Vietnamese, Arabic, Haitian Cerole, French, Khmer, Portuguese, Italian, Polish & Greek","information":"Project Bread connect people to locak food resrouces and enable them to participate in their local food economies and the marketplace. Cost: Free.","category":"Family Support","lat":42.3736922,"lng":-71.0403781},{"organization":"Rogerson Communities","address":"1 Florence Street, Boston MA 02131","website":"","phone":"617-469-5800","fax":"","email":"info@rogerson.org","languages":"English","information":"Provides housing and healthcare for elders and low income families. Fitness and memory loss training. Cost: N/A","category":"Family Support","lat":42.2843952,"lng":-71.1278928},{"organization":"Roxbury Community College Division of Continuing Education","address":"Workforce Development Programs Room 106, Academic Building (Bldg #3) 1234 Columbus Ave Roxbury Crossing, MA 02120","website":"","phone":"617-541-5306 / Leah Barton Clerical Staff Support","fax":"","email":"lbarton@rcc.mass.edu","languages":"English, French & Spanish","information":"Workforce Training Program. Cost:N/A","category":"Family Support"},{"organization":"Spencer House","address":"203R Columbus Avenue Roxbury, MA 02119","website":"","phone":"617-427-5500","fax":"","email":"spencer@rogerson.org","languages":"English","information":"Affordable Elderly Housing Income eligible (60% of HUD Boston Median Income), head of household must be 62 y/o.  Cost:N/A","category":"Family Support","lat":42.3482216,"lng":-71.0723817},{"organization":"The Commonwealth of Massachusetts Executive Office of Labor and Workforce Development of Unemployment Assistance","address":"TeleClaim Center at (877) 626-6800 from area codes 351,413,508,774, and 978 or (617) 626-6800 from any other area code.","website":"www.mass.gov/wd/unemployment-insur/","phone":"Jaimie: 508-766-5710","fax":"","email":"jsibbald@etrcc.com","languages":"English","information":"M-F, 8:30-4:30pm; Unemployment Support","category":"Family Support"},{"organization":"WIC","address":"","website":"mass.gov/wic","phone":"1-800-942-1007","fax":"","email":"","languages":"English/Spanish/Chinese/Korean/Russian/Somali/Vietnamese/Arabic/Haitian Creole/French/Khmer & Portuguese","information":"WIC provides supplemental foods, healthcare referrals, nutrition education, and breastfeeding promotion and support to low-income pregnant, breatfeeding, and postpartum women, and to infants and children up to age five who are found to be at nutritional risk. Cost: Free","category":"Family Support"},{"organization":"Dorchester House Multiservice Center","address":"1353 Dorchester Ave, Dorchester, MA 02122","website":"www.dorchesterhouse.org","phone":"617-288-3230","fax":"","email":"","languages":"English","information":"Adult Medicine, Behavioral Health, Dental Care, Eue Care Clinic, Family Medicine, HIV Services, Lab, Mammography, Nutrition, Pediatrics, Pharmacy, Physical Therapy, Specialty Care, Urgent Care, Womens Health. Cost: N/A","category":"Health","lat":42.3045066,"lng":-71.0594187},{"organization":"Health Connection","address":"1010 Massachusetts Avenue Boston MA 02118","website":"www.bphc.org","phone":"617-534-5050","fax":"","email":"","languages":"English","information":"They assist people in applying for health insurance, or renewals. Cost: N/A","category":"Health","lat":42.3279958,"lng":-71.0672403},{"organization":"Tufts University School of Dental Medicine","address":"1 Kneeland St. Boston, MA 02111","website":"http://dental.tufts.edu/patient-care/","phone":"617-636-6882","fax":"","email":"","languages":"English","information":"Dental Care. Cost:Low Cost","category":"Health","lat":42.3504418,"lng":-71.06286519999999},{"organization":"Whittier Street Health Center","address":"1290 Tremont Street Roxbury, MA 02120","website":"","phone":"617-427-1000","fax":"","email":"contact@wshc.org","languages":"Spanish/English/Somali/Arabic","information":"M-F 8:30-8pm, Sat 8:30-5pm. Adult Medicine, Dermatology, Geriatrics, HIV, LGBTQ clinic, OB/GYN, Orthopedics, Podiatry, Pediatrics/Adolescents Behavioral Health and Substance Abuse, Domestic Violence Counseling & Support Clinical Pharmacy, Nutrition, Art Therapy, Cancer Center, Laboratory, Urgent Care, Eye Care, Eyewar Dispensary, Dentistry, Oral Surgery and Orthodontics. Cost:N/A","category":"Health","lat":42.3327716,"lng":-71.0919277},{"organization":"Millennium House I","address":"471 Dudley St. Roxbury, MA 02119","website":"","phone":"617-445-9112  x 235","fax":"","email":"sgold@csrox.org","languages":"English","information":"Shelter/Scattered Site. Cost:N/A","category":"Homelessness","lat":42.3234438,"lng":-71.07378330000002},{"organization":"Nazareth Residence for Mothers and Children","address":"91 Regent St, Roxbury, MA 02119","website":"www.ccab.org/?q=shelter-services","phone":"617-541-0100","fax":"","email":"","languages":"English","information":"Families served are homeless mothers and their children. At Nazareth, families are able to maintain their independence while they transition to permanet housing. Cost:N/A","category":"Homelessness","lat":42.3235918,"lng":-71.08766969999999},{"organization":"Sojourner House","address":"85 Rockland St. Roxbury, MA 02119","website":"","phone":"617-442-0590","fax":"","email":"sunshine7712@aol.com","languages":"English","information":"Shelter/Scattered Site. Cost:N/A","category":"Homelessness","lat":42.3224897,"lng":-71.087565},{"organization":"St. Mary's Center for Women and Children","address":"90 Cushing Ave, Dorchester MA 02125","website":"www.stmaryscenterma.org","phone":"617-436-8600","fax":"","email":"","languages":"English","information":"Provides housing, shelterm food and education for at-risk women and children. A family-centered short-trm crisis intervention residential program, provides families with shelter and support as they transition from homelessness to independent living. Youth development program for at-risk girls, web-based broadcasting station. Prepares women and their families, by offering skills ro manage finances, and pursue education and employment. Massachusetts Maternity First Home, supportsa housing program that provides 12 homeless families at any one time with the tools, development experience, and learning opportunities. Equips pregnant and parenting teens with skills to improve the emotional, educational and economic well-being of themselves and their children. Cost:N/A","category":"Homelessness","lat":42.3139038,"lng":-71.0634264},{"organization":"St. Ambrose Shelter","address":"25 Leonard St. Dorchester, MA 02122","website":"www.ccab.org/?q=shelter-services","phone":"617-288-7675","fax":"","email":"richardfreitas@ccab.org","languages":"English","information":"Nazareth Residence, Roxbury- Narareth Residence provides homeless mothers and children. St. Ambrose Family Shelter, Dorchester- St. Ambrose Family Shelter provides shelter and support. Cost:N/A","category":"Homelessness","lat":42.3014644,"lng":-71.058802},{"organization":"Budget Buddies","address":"Lilla G. Frederick Middle School 270 Columbia Rd Dorchester, MA 02121","website":"","phone":"Zoila Ricciardi: 617-778-4023","fax":"","email":"","languages":"English","information":"Financial Coaching for Low-Income Women every other Tuesday. Cost;Free","category":"Housing & Financial Couseling","lat":42.3091746,"lng":-71.0755999},{"organization":"City Life Vida Urbana (CLVU)","address":"284 Amory Street, First Floor Jamaica Plain, MA 02130","website":"www.clvu.org","phone":"617-524-3541","fax":"","email":"","languages":"English","information":"Community Organization, they help to build strong tenants associations that work together to baragain collectively with corporate iandlords and to demand policy change. NEW ROAD Network's tenant organizing/anti-foreclosure meetings CL/VU Boston:Every Tuesday Night, 6:30 at 284 Amory Street in Jamaica Plain (on the first floor) CL/VU North Side: Every Wednesday Night, 6:30 at 28 Paris Street in East Boston Chelsea Citywide Tenant Association (Chelsea Collaborative), Last Thursday of every month. 6:00pm at 318 Broadway St, Chelsea. Cost:N/A","category":"Housing & Financial Couseling","lat":42.314476,"lng":-71.103879},{"organization":"Codman Square Neighborhood Development Corporation","address":"587 Washington St. Boston, MA 02124","website":"www.csndc.com","phone":"617-825-4044","fax":"","email":"","languages":"English & Spanish","information":"HUD-Certified housing counseling agency, services are free of change. Computer learning center (basic computer skills, career services, k-12 tutoring, adult education, video production techniques), financial literacy, housing search, foreclosure prevention. Cost:N/A","category":"Housing & Financial Couseling","lat":42.2907985,"lng":-71.0719115},{"organization":"Inner City Capital Connections","address":"184 Dudley St. Roxbury, MA 02119","website":"www.icic.org","phone":"","fax":"","email":"","languages":"English","information":"Private sector investment into local business","category":"Housing & Financial Couseling","lat":42.32875,"lng":-71.0820409},{"organization":"Massachusetts Housing Partnership (MHP)","address":"160 Federal Street Boston, MA 02110","website":"www.mhp.net","phone":"617-330-9955","fax":"","email":"","languages":"English","information":"They help to increase the supply of affordable housing. They helping with rental financing and first-time home buyer programs and mortgages. Cost:N/A","category":"Housing & Financial Couseling","lat":42.3540739,"lng":-71.0558022},{"organization":"Office of Business Development- Boston's Business Resource","address":"1 City Hall Square Boston, MA 02201","website":"www.boston.gov/departments/economic-development","phone":"Lauren Jones, Director of Business Strategy: 617-635-5729","fax":"","email":"","languages":"English","information":"Support of business needs. Cost:Free","category":"Housing & Financial Couseling","lat":42.360331,"lng":-71.057996},{"organization":"Qunicy Geneva Housing Development","address":"320 Blue Hill Ave. Boston, MA 02121","website":"www.quincygeneva.org","phone":"617-442-5711","fax":"","email":"","languages":"English","information":"Provide affordable rental homes through renovation and new construction. Preserve the supply and quality of affordable rental housing. Encourage and assist local commercial development. Develop economic and employment opportunities. Supports residents with social and family service programs. Improving residents quality of life and ensure public safety. Cost:N/A","category":"Housing & Financial Couseling","lat":42.3136433,"lng":-71.0791492},{"organization":"Residential Assistance for families in Transition (RAFT)","address":"","website":"www.masss.gov/hed/housing/stabilization/residential-assistance-for-families-in-transition.html","phone":"1-800-224-5124","fax":"","email":"","languages":"English","information":"Offers short-term financial assistance to low-income families who are homeless or at rish of becoming homeless. Financial assistance for moving cost, rent, utility arrears, ental stripends, security deposits, utility start-up costs, first/last month rent, and furniture (Limit $1,000). Up to $4,000 in a 12 month period. Cost:N/A","category":"Housing & Financial Couseling"},{"organization":"Bay Cove Human Services","address":"66 Canal Street, Boston, MA 02114","website":"www.baycove.org","phone":"617-371-3000","fax":"","email":"","languages":"English & Spanish","information":"Early intervention for preschoolers, and support for families. Dug and alcohol treatment- outpatient methadone, inpatient detox, bilingual counseling services. Development disabilities- job placement, family support, 24hr staffed homes. Adolescent transition services, career counseling, and therapy. Provide elderly day services, meals on wheels, transportation services and senior housing. Provide housing and rehab for patients with psychiatric disorders. Cost;N/A","category":"","lat":42.3636712,"lng":-71.0596882},{"organization":"Project RIGHT","address":"Project R.I.G.H.T Inc 320A Blue Hill Ave. Dorchester, MA 02121","website":"www.projectrightinc.org/ www.facebook.com/PRI.GroveHall/","phone":"617-541-5454","fax":"","email":"","languages":"English & Others","information":"Arts, Civic Engagement, Public Safety, Sports, Substance Abuse, Trauma & Youth Development. Cost:N/A","category":""},{"organization":"Dorchester House Multi-Service Center","address":"1353 Dorchester Ave, Dorchester, MA 02122","website":"www.dorchesterhouse.org","phone":"617-288-3230","fax":"","email":"","languages":"English","information":"Dorchester House Multi-Service Center, a Federally Qualified Health Center, has been providing some of the best health care available to Boston's underserved populations for the past four decades. Cost: N/A","category":"Immigrant Services","lat":42.3045066,"lng":-71.0594187},{"organization":"La Alianze Hispana","address":"409 Dudley Street Roxbury MA 02119","website":"www.laailanza.org","phone":"617-427-7125","fax":"","email":"","languages":"English","information":"Workforce and Learning programs: ESOL, computer clasees, after school academic enrichment. Health and Human Services programs: Senior Center, Family Counseling Center (mental health services), Parent Mentoring, Madres en Processo (Health Start), enrollment. Cost:N/A","category":"Immigrant Services","lat":42.3253851,"lng":-71.0753876},{"organization":"Nazareth Residence for Mothers and Children","address":"91 Regent St, Roxbury, MA 0219","website":"www.ccab.org/?q=shelter-services","phone":"617-541-0100","fax":"","email":"","languages":"English","information":"Families served are homeless mothers and their children. At Nazareth, families are able to maintain their independence while they transition to permanent housing. Cost:N/A","category":"Immigrant Services","lat":42.3235918,"lng":-71.08766969999999},{"organization":"Asian American Civic Association (AACA)","address":"87 Tyler St. Boston, MA 02111","website":"www.aaca-boston.org/english","phone":"617-426-9492 x250","fax":"","email":"","languages":"English","information":"English for Immigrant Adults. Cost:Low Cost","category":"","lat":42.348824,"lng":-71.0617406},{"organization":"St. Mark Community Education Program","address":"20 Roseland St. Dorchester, MA 02124","website":"http://www.stmarksesol.org","phone":"617-288-8515","fax":"","email":"","languages":"English","information":"English Classes, Conversation Group, Computer Classes, CItizenship Classes, & General Infomation. Cost:Low Cost","category":"","lat":42.2913619,"lng":-71.0635841},{"organization":"Guide to Legal Services","address":"Sufflok County Probate & Family Court. 24 New Chardon Street, 3rd Floor Boston, MA 02114","website":"www.probatecourtiannella.com","phone":"617-788-8300","fax":"","email":"","languages":"English","information":"The website has the latest information about probate and family law resources. They include: law referral services, Pro Bono Legal Assistance, Legal Aid Services, specialized legal services (Domesti violence, disabilities, Housing & Homelessness, Immigrantion, Civic RIghts & Discrimination, Children's Right. Cost: N/A","category":"","lat":42.3629615,"lng":-71.06154200000002},{"organization":"Big Sisters","address":"","website":"www.bigsister.org","phone":"617-236-8060","fax":"","email":"","languages":"English & Spanish","information":"Big Sisters are volunteers, ages 20 and older, who are committed to hlp girls between ages 7-15 years old. Cost:Free","category":"Mentoring Programs"},{"organization":"Success Boston- College Completion Initiative","address":"","website":"www.successboston.org","phone":"Elizabeth Pauley: 617-338-2685","fax":"","email":"elizabeth.Pauley@tbf.org","languages":"English","information":"High school seniors or recent grauates can get connected to a transition coah, someone to provide mentoring and help with navigating cmapus, connecting with peers, accessing on-campus resources, and solving problems--easing the transition to college. Cost:Free","category":"Mentoring Programs"},{"organization":"Tenacity","address":"Lilla G. Frederick Middle School 270 Columbia Rd. Dorchester MA 02121","website":"","phone":"Debbie Dowlin, Site Director & Academic Coordinator- 617-388-2327","fax":"","email":"debbydowlin@tenacity.org tenacity.org","languages":"English & Spanish","information":"Elementary Program, Middle School Academy, College Prep & Post-Secondary Services. Cost:Free","category":"Mentoring Programs","lat":42.3091746,"lng":-71.0755999},{"organization":"Boston Police","address":"Office of the Police Commissioner 1 Schroeder Plaza, Boston, MA, 02120","website":"bpdnews.com/osic/","phone":"William G. Gross- 617-343-8309","fax":"","email":"william.gross@pd.boston.gov","languages":"English","information":"William G. Gross, Superintendent-In-Chief","category":"Municipal Agency","lat":42.334453,"lng":-71.089938},{"organization":"Boston Police","address":"District C-11:CSO 40 Gibson St. Dorchester, MA, 02122","website":"","phone":"617-436-7075","fax":"","email":"lieu.nguyen@pb.boston.gov","languages":"Vietnamese & English","information":"Lieu Nguyen, Vietnamese Youth Liaison","category":"Municipal Agency","lat":42.2980685,"lng":-71.0591413},{"organization":"Massachuesetts Senate","address":"Massachusetts State House 24 Beacon St, Room 410, Boston, MA 02133","website":"www.masenate.gov","phone":"617-722-1150","fax":"","email":"Linda.DorcenaForry@masenate.gov","languages":"English, French &Haitian Creole","information":"J. Theodore Chery, Director of Constituent Services and International Affairs for Massachusetts Senator Linda Dorcena Forry. He is the primary contact for all constituent communication including liaising with state, local, and federal offices; working with neighborhood organizations and coordinating town hall mettings.","category":"Municipal Agency","lat":42.358155,"lng":-71.063771},{"organization":"Mayor's Office of Neighborhood Sevices City of Boston","address":"City Hall. 1 City Hall Square, Room 805, Boston MA 02201","website":"","phone":"617-635-4873","fax":"","email":"khoa.pham@boston.gov","languages":"Vietnamese & English","information":"Khoa L. Pham, Vietnamese Liaison","category":"Municipal Agency","lat":42.3602593,"lng":-71.05779849999999},{"organization":"MBTA Transit Police Department","address":"240 Southhampton St. Boston, MA 02118","website":"www.mbta.com/transitpolice","phone":"Kenneth Green: 617-222-1001 or 617-780-8952","fax":"","email":"kgreen@mbta.com","languages":"English","information":"Kenneth Green, Deputy Chief","category":"Municipal Agency","lat":42.3318795,"lng":-71.0642274},{"organization":"Boston College Athletic Department","address":"Office of External Operations 140 Commonwealth Aveune, Chestnut Hill, MA 02467 Conte Forum, Suite 238","website":"","phone":"617-552-3005","fax":"","email":"","languages":"English","information":"Requesting signed memorabilia, discounted tickets, or promotional appearences. Cost:N/A","category":"Recreation","lat":42.3350945,"lng":-71.16763639999999},{"organization":"Fenway Culture District","address":"The Fenway Alliance 337A Huntington Ave, Boston, MA 02115","website":"http://fenwayculture.org/category/the-fenway-cultural-district/","phone":"617-437-7544","fax":"","email":"info@fenwayculture.org","languages":"English","information":"Provide a culture opportunities for individuals and families throughout the region. Cost:N/A","category":"Recreation","lat":42.3407107,"lng":-71.08884429999999},{"organization":"Healthworks Community Fitness","address":"450 Washington St. Dorchester, ma 02124","website":"www.healthworkscommunityfitness.org","phone":"617-825-2800","fax":"","email":"fitnessdirector@healthworkscommunityfitness.org","languages":"English & Spanisih","information":"Woman Fitness Program","category":"Recreation","lat":42.2958712,"lng":-71.07185849999999},{"organization":"Kroc Center","address":"The Salvation Army Ray & Joan Kroc Corps Community Center 650 Dudley Street Boston, MA 02125","website":"bostonkroc.salvationarmy.org/BostonKroc/","phone":"617-318-6900","fax":"","email":"","languages":"English","information":"Aquatic Programs,Corp (Church), Creative Arts, Culinary Training, Education & Youth, Fitness, Sports & Recreation & Senior Programming. Cost:Low Cost","category":"Recreation","lat":44.9759757,"lng":-123.0094293},{"organization":"All Saints Penteconstal House of Prayer","address":"50 Guild Street, Roxbury, MA 02119","website":"","phone":"617-442-6319","fax":"","email":"","languages":"English","information":"Services: N/A. Cost:N/A","category":"Religious Institutions","lat":42.3270312,"lng":-71.0899209},{"organization":"Alpha And Omega Church","address":"51 Adams ST, Roxbury, MA 02119-2637","website":"","phone":"617-436-5473","fax":"","email":"","languages":"English","information":"Services: N/A. Cost:N/A","category":"Religious Institutions","lat":42.3280428,"lng":-71.077279},{"organization":"Bahai Centre","address":"959 Albany St, Boston, MA 02119","website":"www.bahai.org","phone":"","fax":"","email":"","languages":"English","information":"Services: N/A. Cost:N/A","category":"Religious Institutions","lat":42.3300314,"lng":-71.0788463},{"organization":"Berea Seventh-Day Adventist Church","address":"108 Sever St, Dorchester MA 02121","website":"","phone":"617-427-2201","fax":"","email":"","languages":"English","information":"Services: N/A. Cost:N/A","category":"Religious Institutions","lat":42.31037449999999,"lng":-71.0921463},{"organization":"Bethel Baptist Church","address":"18 Saint James, Street Roxbury, MA 02119","website":"","phone":"617-445-0584","fax":"","email":"","languages":"English","information":"Services: N/A. Cost:N/A","category":"Religious Institutions","lat":42.3260625,"lng":-71.0848166},{"organization":"Bethel Bible Institue Church","address":"112 Humboldt Ave, Dorchester, MA 02121","website":"","phone":"617-427-3948","fax":"","email":"","languages":"English","information":"Services: N/A. Cost:N/A","category":"Religious Institutions","lat":42.3164482,"lng":-71.08686089999999},{"organization":"Bethlehem Temple Church","address":"14 Rockland Street Roxbury, MA 02119","website":"","phone":"617-442-2959","fax":"","email":"","languages":"English","information":"Services: N/A. Cost:N/A","category":"Religious Institutions","lat":42.32168,"lng":-71.083219},{"organization":"Beulah Pilgrim Holiness Church","address":"455 Blue Hill Avenue, Dorchester, MA 02121","website":"","phone":"617-427-6824","fax":"","email":"","languages":"English","information":"Services: N/A. Cost:N/A","category":"Religious Institutions","lat":42.3093304,"lng":-71.0831165},{"organization":"Beulah Pilgrim Holiness Church","address":"615 Warren St, Dorchester, MA 02121","website":"","phone":"617-445-8535","fax":"","email":"","languages":"English","information":"Services: N/A. Cost:N/A","category":"Religious Institutions","lat":42.3111373,"lng":-71.0834555},{"organization":"Boston Missionary Baptist Church","address":"336 Dudley Street, Roxbury, MA 02119","website":"www.mybmbc.org","phone":"617-427-4448","fax":"","email":"","languages":"English","information":"Sunday at 8:00AM-10:00AM English Service: Sunday at 10:30AM-11:30AM Sunday School at 11:30 AM-1:30PM. Creole/French Service","category":"Religious Institutions","lat":42.3273581,"lng":-71.0765323},{"organization":"Centro Cristiano Emanuel","address":"94 Warren Street Roxbury MA 02119","website":"","phone":"","fax":"","email":"","languages":"English & Spanish","information":"Services: N/A. Cost:N/A","category":"Religious Institutions","lat":42.3272589,"lng":-71.082742},{"organization":"Charles Street AME Church","address":"551 Warren St, Dorchester MA 02121","website":"","phone":"617-442-7770","fax":"","email":"","languages":"English","information":"Worship Services: Sundays- 8:00AM &11:15AM Wednesday- 7:30 PM. Church School: Sundays- 9:30AM. Bible Study: Wednesday- 6:00PM, Saturdays-8:00AM","category":"Religious Institutions","lat":42.3127491,"lng":-71.0837233},{"organization":"Christ Apostolic Church Mount Joy","address":"276 Blue Hil Ave, Boston MA 02123","website":"","phone":"617-442-3145","fax":"","email":"","languages":"English","information":"Services: N/A. Cost:N/A","category":"Religious Institutions","lat":42.315045,"lng":-71.078231},{"organization":"Christian Science Church","address":"33 Elm Ave, Dorchester, MA 02121","website":"","phone":"617-442-8448","fax":"","email":"","languages":"English","information":"Sunday: 10:45AM (childcare available). Sunday School: 10:45AM. Wednesday:8:00PM (childcare available)","category":"Religious Institutions","lat":42.3123515,"lng":-71.0857142},{"organization":"Church Of Christ In Roxbury","address":"81 Walnut Aveune Roxbury, MA 02119","website":"www.churchofchristroxbury.org","phone":"617-442-5826","fax":"","email":"","languages":"English","information":"9:30am- Bible Study (All Ages). 10:30am - Morning Worship. 5:00pm - Evening Worship (1st Sunday). 5:00pm - Spiritual Development Class (2nd Sun.). 5:00pm - Men's/Women's Classes (4th Sun.)","category":"Religious Institutions","lat":42.3224254,"lng":-71.085304},{"organization":"Church Of God In Christ","address":"3 Regent Street, Roxbury, MA 02119","website":"","phone":"617-427-9885","fax":"","email":"","languages":"English","information":"Services: N/A. Cost:N/A","category":"Religious Institutions","lat":42.3258293,"lng":-71.0838026},{"organization":"Church Of God Of Prophecy","address":"270 Warren Street, Roxbury MA 0219","website":"cogop.org","phone":"617-427-7766","fax":"","email":"","languages":"English","information":"Services: N/A. Cost:N/A","category":"Religious Institutions","lat":42.3213247,"lng":-71.0814176},{"organization":"Community Gospel Chapel","address":"8 Intervale St, Boston MA 02121","website":"","phone":"617-427-4023","fax":"","email":"","languages":"English","information":"Services: N/A. Cost:N/A","category":"Religious Institutions","lat":42.3124015,"lng":-71.0819667},{"organization":"Community House Of Prayer & Worship, The","address":"14 Crawford St, Dorchester, MA 02121-3815","website":"","phone":"","fax":"","email":"","languages":"English","information":"Services: N/A. Cost:N/A","category":"Religious Institutions","lat":42.3103908,"lng":-71.0842445},{"organization":"Denfenders Of The Chrstian Faith","address":"10 E Cottage St, Boston, MA 02119","website":"www.defendersboston.org/#home","phone":"617-445-2008","fax":"","email":"","languages":"English","information":"Sunday at 10:00AM Sunday at 12:15AM","category":"Religious Institutions","lat":42.3216096,"lng":-71.0715864},{"organization":"Deliverence Faith Tabernacle","address":"102 Lawrence Ave, Boston, MA 02121","website":"","phone":"617-427-4217","fax":"","email":"","languages":"English","information":"Services: N/A. Cost:N/A","category":"Religious Institutions","lat":42.3109285,"lng":-71.0747557},{"organization":"Eglise De Dieu Sinai","address":"28 Palmer St, Roxbury, MA 02119","website":"","phone":"617-296-5998","fax":"","email":"","languages":"English & French","information":"Services: N/A. Cost:N/A","category":"Religious Institutions","lat":42.3302972,"lng":-71.0820749},{"organization":"Eliot Church Of Roxbury","address":"120 Walnut Avenue Roxbury MA 02119","website":"","phone":"617-445-7525","fax":"","email":"","languages":"English","information":"Services: N/A. Cost:N/A","category":"Religious Institutions","lat":42.3205858,"lng":-71.0860221},{"organization":"Emmanuel Temple Pentecostal Church","address":"471 Warren St, Boston, MA 02121","website":"","phone":"617-442-8500","fax":"","email":"","languages":"English","information":"Services: N/A. Cost:N/A","category":"Religious Institutions","lat":42.3151562,"lng":-71.08339029999999},{"organization":"End Time Prophetic Deliverance Center","address":"455 Blue Hill Ave, Roxbury, MA 02121-4301","website":"","phone":"","fax":"","email":"","languages":"English","information":"Services: N/A. Cost:N/A","category":"Religious Institutions","lat":42.3093304,"lng":-71.0831165},{"organization":"Ethiopian Evangelical Church In Boston","address":"2566 Washington St, Roxbury, MA 02119","website":"www.eecboston.org/2014/index.php/en/","phone":"617-427-1440","fax":"","email":"","languages":"English","information":"Sunday 10AM-12:30PM","category":"Religious Institutions","lat":42.3263864,"lng":-71.0873074},{"organization":"Faro Divinio (Free Methotist Church)","address":"203 Blue Hill Avenue, Boston, MA 02119","website":"","phone":"617-652-7078","fax":"","email":"","languages":"English & Spanish","information":"Services: N/A. Cost:N/A","category":"Religious Institutions","lat":42.3176573,"lng":-71.0782382},{"organization":"First Church In Roxbury","address":"10 Putnam Street Roxbury, MA 02119","website":"www.uuum.org","phone":"617-318-6010","fax":"","email":"","languages":"English","information":"Services: N/A. Cost:N/A","category":"Religious Institutions","lat":42.3299843,"lng":-71.0894447},{"organization":"First Haitian Church in Dorchester","address":"397 Blue Hill Ave, Dorchester MA 02121","website":"","phone":"617-427-4103","fax":"","email":"","languages":"English","information":"Services: N/A. Cost:N/A","category":"Religious Institutions","lat":42.31136160000001,"lng":-71.0816272},{"organization":"First Parish Church in Dorchester","address":"10 Parish St. Dorchester MA 02122","website":"firstparishdorchester.org","phone":"617-436-0527","fax":"","email":"","languages":"English","information":"Services: N/A. Cost:N/A","category":"Religious Institutions","lat":42.3081896,"lng":-71.0620291},{"organization":"Garden Of Prayer Cogic","address":"84 Blue Hil Ave, Roxbury, MA 02119","website":"","phone":"","fax":"","email":"","languages":"English","information":"Services: N/A. Cost:N/A","category":"Religious Institutions","lat":42.3221661,"lng":-71.07705779999999},{"organization":"Global Reach Evangelical Missionary Church","address":"95 Freeport Street, Suite 2, Dorchester, MA 02122","website":"hcfboston.com","phone":"","fax":"","email":"","languages":"English","information":"Services: N/A. Cost:N/A","category":"Religious Institutions","lat":42.30524399999999,"lng":-71.05749229999999},{"organization":"Good Shephard Church Of God","address":"Po Box 191129 Roxbury MA 02119","website":"","phone":"617-445-6016","fax":"","email":"","languages":"English","information":"Services: N/A. Cost:N/A","category":"Religious Institutions","lat":42.32182359999999,"lng":-71.08840359999999},{"organization":"Grace & Hope Missionary Church","address":"1900 Columbus Avenue Roxbury, MA 02119","website":"","phone":"","fax":"","email":"","languages":"English","information":"Services: N/A. Cost:N/A","category":"Religious Institutions","lat":42.317188,"lng":-71.097966},{"organization":"Heart Change Fellowship","address":"906 Albany St. Roxbury MA 02119","website":"hcfboston.com","phone":"","fax":"","email":"","languages":"English","information":"Services: N/A. Cost:N/A","category":"Religious Institutions","lat":42.3305706,"lng":-71.0772767},{"organization":"Holy Tabernacle Church Of God In Christ Apostolic","address":"70 Washington St, Dorchester, MA 02121","website":"www.holytab.org","phone":"617-427-8510 --or- 617-427-8022","fax":"","email":"","languages":"English","information":"MON: 7:00-8:30pm. Support Group TUES: Noon-1:00 pm - Hour of Faith, Prayer and Power 7:30 pm - Evening Worship Service WED: 6:00pm Prayer and Intercession 7:00pm - Bible Study THUR: Noon-1:00pm Hour of Faith, Prayer and Power FRI: 6:30 pm Youth Night Out' 1st & 3rd Fridays SAT: 10:00am Christian Education. Cost:N/A","category":"Religious Institutions","lat":42.3064394,"lng":-71.08129389999999},{"organization":"Holy Temple Church","address":"14 Lambert Avenue Roxbury,MA 02119","website":"","phone":"617-445-2990","fax":"","email":"","languages":"English","information":"Services: N/A. Cost:N/A","category":"Religious Institutions","lat":42.3288141,"lng":-71.0888509},{"organization":"Houe Of Judah Ministries","address":"26 Waumbeck St, Roxbury, MA 02119","website":"","phone":"","fax":"","email":"","languages":"English","information":"Services: N/A. Cost:N/A","category":"Religious Institutions","lat":42.3137731,"lng":-71.0862362},{"organization":"Iglesia Defendsores De La Fe, Segunda","address":"428 Blue Hill Ave, Roxbury, MA 02130-2600","website":"","phone":"","fax":"","email":"","languages":"English & Spanish","information":"Services: N/A. Cost:N/A","category":"Religious Institutions","lat":42.3104396,"lng":-71.0816328},{"organization":"Iglesia Samria Evangelica","address":"367 Dudley St, Roxbury MA 02119","website":"","phone":"617-541-9117","fax":"","email":"","languages":"English & Spanish","information":"Services: N/A. Cost:N/A","category":"Religious Institutions","lat":42.3263191,"lng":-71.0758774},{"organization":"Jesus Help Baptist Church","address":"165 Blue Hill Avenue Roxbury, MA 02119","website":"","phone":"617-442-3133","fax":"","email":"","languages":"English","information":"Services: N/A. Cost:N/A","category":"Religious Institutions","lat":42.3192116,"lng":-71.07800449999999},{"organization":"Life Changing Evangelistic","address":"166 Blue Hill Avenue Roxbury, MA 02119","website":"","phone":"617-442-3134","fax":"","email":"","languages":"English","information":"Services: N/A. Cost:N/A","category":"Religious Institutions","lat":42.318945,"lng":-71.0777591},{"organization":"Lucy Stone House (Uu Community Cooperatives)","address":"28 Moreland St Boston MA 02119","website":"uucommunitycoops.org/lsc","phone":"","fax":"","email":"","languages":"English","information":"Services: N/A. Cost:N/A","category":"Religious Institutions","lat":42.3255862,"lng":-71.0812577},{"organization":"Manning Temple Holy Church Of Love","address":"36 Lawrence Ave, Boston MA 02121","website":"","phone":"617-442-7573","fax":"","email":"","languages":"English","information":"Services: N/A. Cost:N/A","category":"Religious Institutions","lat":42.3127429,"lng":-71.0778351},{"organization":"Margaret Moseley House (Uu Community Cooperatives)","address":"89 Munroe St Boston MA 02119","website":"uucommunitycoops.org/margaret-moseley-cooperative","phone":"617-238-5051","fax":"","email":"","languages":"English","information":"Services: N/A. Cost:N/A","category":"Religious Institutions","lat":42.31891890000001,"lng":-71.088391},{"organization":"Masjid-Al-Quran","address":"35 Intervale Street, Dorchester , MA 02121","website":"","phone":"","fax":"","email":"","languages":"English","information":"Services: N/A. Cost:N/A","category":"Religious Institutions","lat":42.3116711,"lng":-71.08025119999999},{"organization":"Mosque For Praising Allah","address":"724 Shawmut Ave, Boston, MA 02119","website":"www.mosquepraiseallah.com","phone":"617-442-2805","fax":"","email":"","languages":"English","information":"Services: N/A. Cost:N/A","category":"Religious Institutions","lat":42.3327608,"lng":-71.0833037},{"organization":"Mount Calvary Holy Church Of America","address":"9 Otisfield St, Roxbury, MA 02121","website":"","phone":"617-427-7596","fax":"","email":"","languages":"English","information":"Services: N/A. Cost:N/A","category":"Religious Institutions","lat":42.312744,"lng":-71.0809605},{"organization":"Muhammad's Mosque #11","address":"10 Washington St, Dorchester, MA 02121","website":"","phone":"617-442-6082","fax":"","email":"","languages":"English","information":"Services: N/A. Cost:N/A","category":"Religious Institutions","lat":42.3082999,"lng":-71.08272699999999},{"organization":"New Faith Missionary Baptist Church","address":"66 Geneva Ave, Dorchester MA 02121","website":"","phone":"617-445-8200","fax":"","email":"","languages":"English","information":"Services: N/A. Cost:N/A","category":"Religious Institutions","lat":42.3078774,"lng":-71.080096},{"organization":"New Life Resurrection Baptist Church","address":"27 Howland St, Roxburym MA 02121","website":"","phone":"617-442-8398","fax":"","email":"","languages":"English","information":"Services: N/A. Cost:N/A","category":"Religious Institutions","lat":42.3126701,"lng":-71.08541629999999},{"organization":"New Vision Church International","address":"232 Columbia Road, Dorchester, MA 02121","website":"","phone":"","fax":"","email":"","languages":"English","information":"Services: N/A. Cost:N/A","category":"Religious Institutions","lat":42.3077984,"lng":-71.07606249999999},{"organization":"Nueva Vida","address":"263 Eustic St., Roxbury, MA 02119","website":"","phone":"","fax":"","email":"","languages":"English & Spanish","information":"Services: N/A. Cost:N/A","category":"Religious Institutions","lat":42.3263744,"lng":-71.0747318},{"organization":"Pabellon De La Fe Church","address":"3134 Washington St, Roxbury MA 02119","website":"","phone":"","fax":"","email":"","languages":"English & Spanish","information":"Services: N/A. Cost:N/A","category":"Religious Institutions","lat":42.314093,"lng":-71.09944},{"organization":"Pleasant Hill Baptist Church","address":"155 Humboldt Ave, Dorchester MA 02121","website":"","phone":"617-427-0905","fax":"","email":"","languages":"English","information":"Services: N/A. Cost:N/A","category":"Religious Institutions","lat":42.31453519999999,"lng":-71.0886752},{"organization":"Presbyterian Church Of Roxbury","address":"328 Warren Street Roxbury, MA 02119","website":"www.roxburypresbyterianchurch.org","phone":"617-445-2116","fax":"","email":"","languages":"English","information":"Sundays 11:00am. Cost: N/A","category":"Religious Institutions","lat":42.319512,"lng":-71.081113},{"organization":"Prima Iglesia De Jesus Christo","address":"547 Dudley St, Roxbury Ma 02119","website":"","phone":"617-427-2718","fax":"","email":"","languages":"English & Spanish","information":"Services: N/A. Cost:N/A","category":"Religious Institutions","lat":42.3215147,"lng":-71.0723391},{"organization":"Purpose Living Restoration Ministries","address":"165 Blue Hill Avenue Roxbury, MA 02119","website":"","phone":"","fax":"","email":"","languages":"English","information":"Services: N/A. Cost:N/A","category":"Religious Institutions","lat":42.3192116,"lng":-71.07800449999999},{"organization":"Refuge Church Of Christ","address":"46 Millmont Street, Roxbury MA 02119","website":"","phone":"617-445=3878","fax":"","email":"","languages":"English","information":"Services: N/A. Cost:N/A","category":"Religious Institutions","lat":42.3276303,"lng":-71.09051749999999},{"organization":"Refuge Temple Church of Jesus Christ Apostolic","address":"37 Winthrop Street Roxbury, MA 02119","website":"","phone":"617-427-3399","fax":"","email":"","languages":"English","information":"Services: N/A. Cost:N/A","category":"Religious Institutions","lat":42.325886,"lng":-71.08079099999999},{"organization":"Resurrection Lutheran Church","address":"94 Warren St, Boston, MA 02119","website":"","phone":"617-427-2066","fax":"","email":"","languages":"English","information":"Services: N/A. Cost:N/A","category":"Religious Institutions","lat":42.3272589,"lng":-71.082742},{"organization":"Rising Star Pentecostal Church","address":"2 Otisfield Street, Boston, MA 02121","website":"","phone":"617-541-4335","fax":"","email":"","languages":"English","information":"Services: N/A. Cost:N/A","category":"Religious Institutions","lat":42.3131105,"lng":-71.0808041},{"organization":"Saint Josephs Church","address":"85 Regent Street, Roxbury, MA 02119","website":"","phone":"617-442-0900","fax":"","email":"","languages":"English","information":"Services: N/A. Cost:N/A","category":"Religious Institutions","lat":42.32377229999999,"lng":-71.0873608},{"organization":"Saint Paul Church Of God In Christ","address":"236 Blue Hill Aveune Roxbury, MA 02119","website":"","phone":"617-445-8957","fax":"","email":"","languages":"English","information":"Services: N/A. Cost:N/A","category":"Religious Institutions","lat":42.3165641,"lng":-71.0780134},{"organization":"Salem Hispanic Seventh Day Adventist Church","address":"46 Forest St, Roxbury, MA 02119","website":"","phone":"617-427-6631","fax":"","email":"","languages":"English","information":"Services: N/A. Cost:N/A","category":"Religious Institutions","lat":42.3267124,"lng":-71.07734479999999},{"organization":"Sermon On The Mount Baptist Church","address":"147 Moreland Street, Roxbury, MA 02119","website":"","phone":"617-445-9961","fax":"","email":"","languages":"English","information":"Services: N/A. Cost:N/A","category":"Religious Institutions","lat":42.3220755,"lng":-71.0746486},{"organization":"Southern Baptist Church","address":"29 Winthrop Street, Roxbury, MA 02119","website":"","phone":"617-445-6354","fax":"","email":"","languages":"English","information":"Services: N/A. Cost:N/A","category":"Religious Institutions","lat":42.3260837,"lng":-71.08169529999999},{"organization":"St Mark Congregational Church","address":"200 Townsend St, Dorchster, MA 02121","website":"www.macucc.org","phone":"617-442-0481","fax":"","email":"","languages":"English","information":"Services: N/A. Cost:N/A","category":"Religious Institutions","lat":42.3171251,"lng":-71.0860237},{"organization":"St Mary Of The Angels Church","address":"377 Walnut Ave, Roxbury MA 02119","website":"www.rc.net/boston/stmaryoftheangels","phone":"617-445-1524","fax":"","email":"","languages":"English & Spanish","information":"Sunday at 9:00 AM in English. Sunday at 11:00 AM in Spanish. Cost:N/A","category":"Religious Institutions","lat":42.313731,"lng":-71.09498099999999},{"organization":"St Patrick's","address":"10 Magazine St, Roxbury, MA 02119","website":"www.saintpatricksroxbury.com","phone":"617-445-7645","fax":"","email":"","languages":"English, Cape Verdean & Spanish","information":"Sunday at 9:30 AM in Cape Verdean Sunday at 10:45 AM. Sunday at 12:00 PM in Spanish. Cost:N/A","category":"Religious Institutions","lat":42.3256457,"lng":-71.0745948},{"organization":"St. James African Orthodox Church","address":"50 Cedar St, Roxbury, MA 02119","website":"","phone":"617-445-5698","fax":"","email":"","languages":"English","information":"Services: N/A. Cost:N/A","category":"Religious Institutions","lat":42.324866,"lng":-71.091388},{"organization":"St John Missionary Baptist Church","address":"230 Warren St, Roxbury, MA 02119","website":"www.sjmb.bos.org","phone":"617-427-5205","fax":"","email":"","languages":"English","information":"Sunday School 9:00. Monday Worship 11:00am. Cost: N/A","category":"Religious Institutions","lat":42.3229634,"lng":-71.0818651},{"organization":"St. Katherine Drexel","address":"517 Blue Hill Ave, Boston, MA","website":"","phone":"617-445-8915","fax":"","email":"","languages":"English","information":"Services: N/A. Cost:N/A","category":"Religious Institutions","lat":42.307474,"lng":-71.084468},{"organization":"St Mark Episcopal Church","address":"73 Columbia Rd, Boston MA 02121","website":"","phone":"617-436-4319","fax":"","email":"","languages":"English","information":"Services: N/A. Cost:N/A","category":"Religious Institutions","lat":42.3042004,"lng":-71.0817862},{"organization":"St Mark Pentecostal House Of Prayer For All People","address":"99 Wayland St, Boston, MA 02125","website":"","phone":"617-442-8338","fax":"","email":"","languages":"English","information":"Services: N/A. Cost:N/A","category":"Religious Institutions","lat":42.3142288,"lng":-71.0762534},{"organization":"St Patricks Catholic Church","address":"400 Dudley St, Roxbury, MA 02119","website":"www.saintpatricksroxbury.com","phone":"","fax":"","email":"","languages":"English/Spanish & Portuguese","information":"English: Saturday- 4:30 PM, Sunday-10:45AM. Spanish:Sunday-12:00 PM. Cape Verdean: Saturday-^:00pm, Sunday- 9:30AM. Cost:N/A","category":"Religious Institutions","lat":42.3254271,"lng":-71.0750255},{"organization":"Strong Tower Church","address":"115 Warren Street, Roxbury, MA 02119","website":"","phone":"","fax":"","email":"","languages":"English","information":"Services: N/A. Cost:N/A","category":"Religious Institutions","lat":42.3267945,"lng":-71.0837609},{"organization":"Tabernacle Of Prayer Apostolic Church","address":"26 Winthrop St, Roxbury, MA 02119","website":"","phone":"617-323-4550","fax":"","email":"","languages":"English","information":"Services: N/A. Cost:N/A","category":"Religious Institutions","lat":42.3265213,"lng":-71.08159169999999},{"organization":"The Apostolic Church International, Usa, Boston Assembly","address":"62 Batchelder St, Roxbury, MA 02119","website":"tacboston.org","phone":"617-541-0266","fax":"","email":"","languages":"English","information":"Youth Service: 9am-10:15. Cost:N/A","category":"Religious Institutions","lat":42.3230394,"lng":-71.0693683},{"organization":"The Eliot Congregational Church Of Roxbury","address":"56 Dale St, Roxbury, MA 02119","website":"eliotroxbur.org","phone":"617-445-7525","fax":"","email":"","languages":"English","information":"Sundays 11:00am. Cost: N/A","category":"Religious Institutions","lat":42.32092189999999,"lng":-71.0855287},{"organization":"Timothy Baptist Church","address":"35 Highland Avenue, Roxbury MA 02119","website":"www.timothybaptistchurchma.com","phone":"617-445-3820","fax":"","email":"","languages":"English","information":"Sunday School 9:30am. Morning Worship 11:00am. Cost: N/A","category":"Religious Institutions","lat":42.3292135,"lng":-71.092967},{"organization":"Twelfth Baptist Church","address":"150 Warren Street Roxbury, MA 02119","website":"www.tbcboston.org","phone":"617-442-7855","fax":"","email":"","languages":"English","information":"Sundays 10:45am. Cost:N/A","category":"Religious Institutions","lat":42.3253335,"lng":-71.0828196},{"organization":"Unitarian Universalist Association","address":"24 Farnsworth St, Boston, MA 02210","website":"","phone":"617-742-2100","fax":"","email":"","languages":"English","information":"Services: N/A. Cost:N/A","category":"Religious Institutions","lat":42.3516038,"lng":-71.048609},{"organization":"United Community Church","address":"116 Roxbury Street, Roxbury MA 02119","website":"","phone":"617-427-8192","fax":"","email":"","languages":"English","information":"Services: N/A. Cost:N/A","category":"Religious Institutions","lat":42.3305046,"lng":-71.0883667},{"organization":"United House Of Prayer","address":"206 Seaver St, Dorchester MA 02121","website":"","phone":"617-442-0105","fax":"","email":"","languages":"English","information":"Services: N/A. Cost:N/A","category":"Religious Institutions","lat":42.3078803,"lng":-71.0882584},{"organization":"Warren Street Baptist Church","address":"334 Warren Street, Roxbury, MA","website":"","phone":"617-427-1715","fax":"","email":"","languages":"English","information":"Services: N/A. Cost:N/A","category":"Religious Institutions","lat":42.31931429999999,"lng":-71.0812978},{"organization":"Word Of Life Tabernacle","address":"120 Amory Street, Roxbury, MA 02119","website":"","phone":"617-514-4080","fax":"","email":"","languages":"English","information":"Services: N/A. Cost:N/A","category":"Religious Institutions","lat":42.31907100000001,"lng":-71.100278},{"organization":"Zion Fire Bapitzed Holiness Church Of God of The Amercias","address":"165 Dudley St, Roxbury MA 02119","website":"","phone":"617-442-5948","fax":"","email":"","languages":"English","information":"Services: N/A. Cost:N/A","category":"Religious Institutions","lat":42.328356,"lng":-71.0825792},{"organization":"BC High- Jesuit High School Boston","address":"Barry Hynes (President's assistant) 150 Morrissey Boulevard Boston MA 02125","website":"www.bchigh.edu/home","phone":"617-275-6078","fax":"","email":"bhynes@bchigh.edu","languages":"English","information":"Services and justice initiatives (part of curriculum) Cost:N/A","category":"Schools"},{"organization":"Boston Day & Evening Academy (BDEA) Wheatley Building","address":"20 Kearsage Ave, Roxbury MA 02119","website":"www.bacademy.org","phone":"","fax":"","email":"","languages":"English","information":"Boston Day and Evening Academy re-engages off-track students in their education preparing them for high school graduation, post-secondary sucess and meaningful participation in their community. Cost: N/A","category":"Schools","lat":42.327022,"lng":-71.0817158},{"organization":"Boston Latin Academy","address":"205 Townsend Street, Boston, 02121","website":"latinacademy.org","phone":"617-635-9957","fax":"","email":"","languages":"English","information":"Grades 7-12. The mission of Boston Latin Academy is to prepare students for higher academic study by challenging them with rigorous curriculum. Cost:N/A","category":"Schools","lat":42.316794,"lng":-71.0847574},{"organization":"Community Academy of Science and Health","address":"11 Charles St, Dorchester, MA 02122","website":"www.bostonpublicschools.org/cash","phone":"617-635-8950","fax":"","email":"","languages":"English","information":"C.A.S.H is a community-empowered Academy that prepareds studetns from diverse backgrounds to pursue advanced studies and careers inthe fields of science and health. Cost:N/A","category":"Schools","lat":42.3008814,"lng":-71.0617324},{"organization":"Dearborn 6-12 - Burke High School Bldg.","address":"60 Washington St. Dorchester, MA 02121","website":"dearbornstemacademy.org","phone":"617-635-8412","fax":"","email":"","languages":"English & Creole","information":"Grades 6-12. Dearborn prepares students for the ever-evolving landscape of college, career and life opportunitis engaging them in tasks that are modeled upon what professionals do in their fields. Cost:N/A","category":"Schools","lat":42.3071524,"lng":-71.08116199999999},{"organization":"Dr. Williams W. Henderson K-12 Inclusion School","address":"1669 Dorchester Ave. Dorchester MA 02122","website":"www.bostonpublicschools.org/page/829","phone":"617-635-8725","fax":"","email":"","languages":"English","information":"The Henderson is Boston's only fully inclusive K-12 school. Students involved in general education, students with disabilities, and students considered talents and gifted learn together and from each other. Teachers and support staff team to help children learn and succeed. We offer a comprehensive curriculum with enriched arts experiences. Our greatest achievement is the progress of our students as demonstrated by the quality of their wor, positive interactions, art displays, performances. Cost:N/A","category":"Schools","lat":42.2939179,"lng":-71.0620115},{"organization":"Jeremiah E. Burke High School","address":"60 Washington St. Dorchester, MA 02121","website":"www.jebhs.org","phone":"617-635-9837","fax":"","email":"","languages":"English","information":"The Mission of the Burke High School is to encourage a rigorous pursuit of academic excellence and social development to promote life-long learning and realize the personal goals and ambitions of all students. Cost:N/A","category":"Schools","lat":42.3071524,"lng":-71.08116199999999},{"organization":"Central Boston Elder Services","address":"2315 Washington Street Roxbury, MA 02119","website":"","phone":"617-277-7416","fax":"","email":"","languages":"English","information":"Helps Boston area seniors remain in their homes by providing short and long-term care. Programs and services are offered to help seniors remain self-sufficient and are available to residents living in Allston and other Boston towms in Boston. Cost:N/A","category":"Senior Services","lat":42.3301945,"lng":-71.0846455},{"organization":"Nuestra Communidad","address":"56 Warren Steet Boston, MA 02119","website":"www.nuestracdc.org","phone":"617-427-3599 -or- 617-989-0894","fax":"","email":"","languages":"English","information":"Housing Resource Services Programs: This program provides outreach, information and assitance, advocacy and placement services to homeless elders, at-risk elders and grandparents raising grandchildren. Cost:N/A","category":"Senior Services","lat":42.3288521,"lng":-71.08321149999999},{"organization":"Bird Street Community Center","address":"500 Columbia Rd. Dorchester, MA 02125","website":"www.birdstreet.org","phone":"Alicia Linton: 617-282-6110","fax":"","email":"alinton@birdstreet.org","languages":"English","information":"Youth Development Programs: Workforce Development, Athletics & Recreations, Personal Development & Support and Academics. Cost:Low Cost","category":"Youth Services","lat":42.314827,"lng":-71.0676259},{"organization":"Boston Center for Youth and Families","address":"1483 Tremont Street Boston, MA 02120","website":"www.boston.gov/departments/boston-centers-youth-families","phone":"617-635-4920","fax":"","email":"BCYF@cityofboston.gov","languages":"English, Spanish, Haitian Creole, Portuguese & Vietnamese","information":"Adult Education, Afterschool Programs, Aquatics, Camp Joy, Girls Initiative, Streetworker Program, Summer Programs & Teen Programs.","category":"Youth Services","lat":42.3324184,"lng":-71.0982319},{"organization":"Boston Public Libraries","address":"","website":"www.bpl.org/branches/indexbyneighborhood.html","phone":"BPL Directory: 617-536-5400 Barbara Rhodes: 617-859-2325","fax":"","email":"","languages":"English","information":"Homework Help is in session through May 25, 2017, Monday-Thursday, 3:30-5:30 p.m, at most branches. Please contactyour branch to inquire about their Homework Help schedule. No registration is required. Cost:Free","category":"Youth Services"},{"organization":"Boston Youth Zone","address":"1483 Tremont St Roxbury, MA 02120","website":"www.youth.boston.gov","phone":"617-635-4202","fax":"","email":"","languages":"English","information":"Summer emplyment Youth mentoring programs Lifeguard training. Cost:N/A","category":"Youth Services","lat":42.3324184,"lng":-71.0982319},{"organization":"Catholic Charities/ Tenn Center","address":"Teen Center at St. Peter's 278 Bowdoin St. Dorchester, MA 02122","website":"http://www.ccab.org/?q=TeenCenter","phone":"617-282-3614","fax":"","email":"","languages":"English, Cape Verdean Creole","information":"Tutoring, and mentoring Serve children grades 7-12 After school programs 2pm-9pm, Summer programs 6am-11pm, summer camp. Cost:N/A","category":"Youth Services","lat":42.3075765,"lng":-71.0667733},{"organization":"Community Rowing, INC.","address":"Tiffany Macon 20 Nonantum Road Brighton, MA 02135","website":"www.communityrowing.org","phone":"617-779-8277","fax":"","email":"","languages":"English","information":"Year round program to improve academic achievement. Dsigned for middle schools to add rowing to PE. (4-6wk programs, row machines, boathouse field trips) Free Summer camps. Cost:N/A","category":"Youth Services"},{"organization":"Enhancing Potential Inspiring Change (EPIC)","address":"","website":"www.jhextramile.com/introducing-epic-enhancing-potential-inspiring-change","phone":"Program Director Melisa Canuto 617-516-5403","fax":"","email":"mcanute@bgcd.org","languages":"English","information":"Partnership between the Mayor's office of Public Safety and John Hancock Boys and Girls Club (BGCB's YouthConnect). 12 month program, aimed at increasing self-awareness, and confidence. 11-14year olds. Curriculum is focused on career exploration, cultivating leadership, with supportive community based services. (Free of Charge) Summer programs, and bi-weekly workshops during the school year. Monetary stipend of $800 for positive participation and attendance. Cost:N/A","category":"Youth Services"},{"organization":"Inquilinos Boricuas en Accion (IBA)","address":"405 Shawmut Ave.,Boston, MA 02118","website":"ibaboston.org","phone":"617-927-1707","fax":"","email":"info@ibaboston.org","languages":"English & Spanish","information":"Programs: Preschool Porgram, Afterschool & Summer Learning, Youth Development, College and Workforce, Arts Program, Resident Services, Community Technology Center & Sustainable Housing. Cost:N/A","category":"Youth Services","lat":42.3406386,"lng":-71.0735321},{"organization":"Northern Essex Community College","address":"360  Merrimack Street Building 9, Entry K, 3rd Floor Lawrence, MA 01843","website":"www.necc.mass.edu/academics/prep/adult-literacy/programs-offered/transition-programs/","phone":"Lynn Ricketts-Program Coordinator: 978-659-1272 Lynda MacDonald- Educational and Career Advisor: 978-659-1284","fax":"","email":"mricketss@nexx.mass.edu imacdonald1@necc.mass.edu","languages":"English","information":"ABE Transition to College Program. Cost:Free","category":"Youth Services","lat":42.7036089,"lng":-71.1435363},{"organization":"Y.O. Unlimited","address":"7 Palmer Street, Roxbury, MA 02119","website":"www.youboston.org","phone":"617-541-2600","fax":"","email":"","languages":"English","information":"YOU Boston provides a positive social environment for young people to develop and access professional and academic networks. Cost:N/A","category":"Youth Services","lat":42.3303947,"lng":-71.0826993}]}
