{"array":[{"address":"198 Geneva Ave, Dorchester, MA 02121","lat":42.3055504,"lng":-71.0756932},{"address":"22 Elm Hill Ave, Dorchester, MA 02121","lat":42.3122537,"lng":-71.0842323},{"address":"95 Morland St, Roxbury, MA 02119","lat":42.3229347,"lng":-71.0775407},{"address":"Lilla G. Fredrick Middle School 270 Columbia RD. Dorchester MA, 02121","lat":42.3091746,"lng":-71.0755999},{"address":"207 Columbia RD. Dorchester, MA 02121","lat":42.3069749,"lng":-71.07655919999999},{"address":"42 Charles St Dorcester, MA 02121","lat":42.2999342,"lng":-71.06342870000002},{"address":"1 Parish St, Dorchester MA 02122","lat":42.308294,"lng":-71.061005},{"address":"19 Oakton Av Dorchester, MA 02122","lat":42.2865064,"lng":-71.0532316},{"address":"131 Walnut Ave Roxbury,Ma 02119","lat":42.3208269,"lng":-71.08694539999999},{"address":"Boston Debate League 54 Canal Street 4th Floor, Boston MA 20114"},{"address":"115 Warren St, Roxbury MA 02119","lat":42.3267945,"lng":-71.0837609},{"address":"64 Bradshaw St Dorchester MA 02121","lat":42.2980964,"lng":-71.0836753},{"address":"520 Dudley St Roxbury MA 02119","lat":42.3225768,"lng":-71.0725362},{"address":"85 Olney St Dorchester MA, 02121","lat":42.3060151,"lng":-71.07360489999999},{"address":"105 Crawford St, Dorchester MA 02121","lat":42.3138588,"lng":-71.0902036},{"address":"1800 Columbus St, Roxbury MA 02119","lat":42.3187529,"lng":-71.0980222},{"address":"198 Geneva Ave Dorchester MA 02121","lat":42.3055504,"lng":-71.0756932},{"address":"198 Geneva Ave Dorchester MA 02121","lat":42.3055504,"lng":-71.0756932},{"address":"1010 Harrison Ave Roxbury MA 02119","lat":42.3308653,"lng":-71.079945},{"address":"9 Fulda St Roxbury MA 02119","lat":42.3233123,"lng":-71.0923711},{"address":"88 Olney St Dorchester MA 02121","lat":42.30533,"lng":-71.07273599999999},{"address":"77 Lawrence Ave Dorchester MA 02121","lat":42.311055,"lng":-71.076481},{"address":"150 Norfolk Ave Roxbury MA 02119","lat":42.3261263,"lng":-71.0712839},{"address":""},{"address":"1 Worrell St Dorchester MA 02121","lat":42.2932794,"lng":-71.0490221},{"address":"815 Albany St Boston MA, 02119","lat":42.3323048,"lng":-71.0755595},{"address":"2990 Washington St Roxbury MA 02119","lat":42.3173634,"lng":-71.0964321},{"address":"281a Neponset Ave Dorchester MA 02122","lat":42.2894026,"lng":-71.0480427},{"address":"26-40 Highland Ave Roxbury MA 02119","lat":42.32923359999999,"lng":-71.09328839999999},{"address":"81 Walnut Ave Roxbury MA 02119","lat":42.3224254,"lng":-71.085304},{"address":"285 Martin Luther Kind Blvd Roxbury, MA 02119","lat":42.317764,"lng":-71.0828974},{"address":"11 Mount Pleasant Ave Roxbury, MA 02119","lat":42.3278692,"lng":-71.079734},{"address":"30 Dimock St Roxbury MA 02119","lat":42.3192027,"lng":-71.0962935},{"address":"1705 Columbus Ave Roxbury, MA 02119","lat":42.3202832,"lng":-71.09881349999999},{"address":"56 Dimock St Roxbury MA 02119","lat":42.318961,"lng":-71.097433},{"address":"150-160 Warren St Roxbury MA 02119","lat":42.3253335,"lng":-71.0828196},{"address":"302 Walnut Ave Roxbury, MA 02119","lat":42.3169104,"lng":-71.0922791},{"address":"51 Cedar St Roxbury MA 02119","lat":42.3255446,"lng":-71.09108599999999},{"address":"339 Dudley St Roxbury MA 02119","lat":42.3267858,"lng":-71.0767228},{"address":"185 Columbia Rd Dorchester MA 02121","lat":42.3062973,"lng":-71.07688139999999},{"address":"Central Office: 178 Tremont Street, Boston MA 02111","lat":42.3528925,"lng":-71.0640985},{"address":"108 Columbia Rd Dorchester MA 02124","lat":42.3054253,"lng":-71.0808552},{"address":"102 Columbia Rd, Boston, MA 02121","lat":42.3052258,"lng":-71.0811482},{"address":"7 Chene Street Dorchester MA 02121"},{"address":"184 Dudley Street, Roxbury MA 02119","lat":42.32875,"lng":-71.0820409},{"address":"434 Warren Street Dorchester MA 02121","lat":42.3161615,"lng":-71.08266549999999},{"address":"165M New Boston Street, suite 23 Woburn, MA 01801","lat":42.5095592,"lng":-71.1433069},{"address":"Vietnamese American Community Center 42 Charles St, Suite E Dorchester MA 02122","lat":42.2999342,"lng":-71.06342870000002},{"address":"42 Charles Street Dorchester MA 02122 (Viet-AID building)","lat":42.2999342,"lng":-71.06342870000002},{"address":"789 Clapboardtree S. Westwood MA 02090","lat":42.213179,"lng":-71.19994330000002},{"address":""},{"address":"YAWKEY CENTER- Dorchester Catholic Charities Greater Boston 185 Columbia Road, Dorchester MA 02121","lat":42.3062987,"lng":-71.0769321},{"address":"450 Washington St. Dorchester MA 02124","lat":42.2958712,"lng":-71.07185849999999},{"address":"370 Columbia Rd, Boston MA 02125","lat":42.3112269,"lng":-71.0714119},{"address":"15 Bubier Street, Lynn MA","lat":42.4566124,"lng":-70.94940199999999},{"address":"835 Dorchester Ave, Dorchester, MA 02125","lat":42.3221157,"lng":-71.05693430000001},{"address":"Project Bread 145 Border Street, East Boston, MA 02128","lat":42.3736922,"lng":-71.0403781},{"address":"1 Florence Street, Boston MA 02131","lat":42.2843952,"lng":-71.1278928},{"address":"Workforce Development Programs Room 106, Academic Building (Bldg #3) 1234 Columbus Ave Roxbury Crossing, MA 02120"},{"address":"203R Columbus Avenue Roxbury, MA 02119","lat":42.3482216,"lng":-71.0723817},{"address":"TeleClaim Center at (877) 626-6800 from area codes 351,413,508,774, and 978 or (617) 626-6800 from any other area code."},{"address":""},{"address":"1353 Dorchester Ave, Dorchester, MA 02122","lat":42.3045066,"lng":-71.0594187},{"address":"1010 Massachusetts Avenue Boston MA 02118","lat":42.3279958,"lng":-71.0672403},{"address":"1 Kneeland St. Boston, MA 02111","lat":42.3504418,"lng":-71.06286519999999},{"address":"1290 Tremont Street Roxbury, MA 02120","lat":42.3327716,"lng":-71.0919277},{"address":"471 Dudley St. Roxbury, MA 02119","lat":42.3234438,"lng":-71.07378330000002},{"address":"91 Regent St, Roxbury, MA 02119","lat":42.3235918,"lng":-71.08766969999999},{"address":"85 Rockland St. Roxbury, MA 02119","lat":42.3224897,"lng":-71.087565},{"address":"90 Cushing Ave, Dorchester MA 02125","lat":42.3139038,"lng":-71.0634264},{"address":"25 Leonard St. Dorchester, MA 02122","lat":42.3014644,"lng":-71.058802},{"address":"Lilla G. Frederick Middle School 270 Columbia Rd Dorchester, MA 02121","lat":42.3091746,"lng":-71.0755999},{"address":"284 Amory Street, First Floor Jamaica Plain, MA 02130","lat":42.314476,"lng":-71.103879},{"address":"587 Washington St. Boston, MA 02124","lat":42.2907985,"lng":-71.0719115},{"address":"184 Dudley St. Roxbury, MA 02119","lat":42.32875,"lng":-71.0820409},{"address":"160 Federal Street Boston, MA 02110","lat":42.3540739,"lng":-71.0558022},{"address":"1 City Hall Square Boston, MA 02201","lat":42.360331,"lng":-71.057996},{"address":"320 Blue Hill Ave. Boston, MA 02121","lat":42.3136433,"lng":-71.0791492},{"address":""},{"address":"66 Canal Street, Boston, MA 02114","lat":42.3636712,"lng":-71.0596882},{"address":"Project R.I.G.H.T Inc 320A Blue Hill Ave. Dorchester, MA 02121"},{"address":"1353 Dorchester Ave, Dorchester, MA 02122","lat":42.3045066,"lng":-71.0594187},{"address":"409 Dudley Street Roxbury MA 02119","lat":42.3253851,"lng":-71.0753876},{"address":"91 Regent St, Roxbury, MA 0219","lat":42.3235918,"lng":-71.08766969999999},{"address":"87 Tyler St. Boston, MA 02111","lat":42.348824,"lng":-71.0617406},{"address":"20 Roseland St. Dorchester, MA 02124","lat":42.2913619,"lng":-71.0635841},{"address":"Sufflok County Probate & Family Court. 24 New Chardon Street, 3rd Floor Boston, MA 02114","lat":42.3629615,"lng":-71.06154200000002},{"address":""},{"address":""},{"address":"Lilla G. Frederick Middle School 270 Columbia Rd. Dorchester MA 02121","lat":42.3091746,"lng":-71.0755999},{"address":"Office of the Police Commissioner 1 Schroeder Plaza, Boston, MA, 02120","lat":42.334453,"lng":-71.089938},{"address":"District C-11:CSO 40 Gibson St. Dorchester, MA, 02122","lat":42.2980685,"lng":-71.0591413},{"address":"Massachusetts State House 24 Beacon St, Room 410, Boston, MA 02133","lat":42.358155,"lng":-71.063771},{"address":"City Hall. 1 City Hall Square, Room 805, Boston MA 02201","lat":42.3602593,"lng":-71.05779849999999},{"address":"240 Southhampton St. Boston, MA 02118","lat":42.3318795,"lng":-71.0642274},{"address":"Office of External Operations 140 Commonwealth Aveune, Chestnut Hill, MA 02467 Conte Forum, Suite 238","lat":42.3350945,"lng":-71.16763639999999},{"address":"The Fenway Alliance 337A Huntington Ave, Boston, MA 02115","lat":42.3407107,"lng":-71.08884429999999},{"address":"450 Washington St. Dorchester, ma 02124","lat":42.2958712,"lng":-71.07185849999999},{"address":"The Salvation Army Ray & Joan Kroc Corps Community Center 650 Dudley Street Boston, MA 02125","lat":44.9759757,"lng":-123.0094293},{"address":"50 Guild Street, Roxbury, MA 02119","lat":42.3270312,"lng":-71.0899209},{"address":"51 Adams ST, Roxbury, MA 02119-2637","lat":42.3280428,"lng":-71.077279},{"address":"959 Albany St, Boston, MA 02119","lat":42.3300314,"lng":-71.0788463},{"address":"108 Sever St, Dorchester MA 02121","lat":42.31037449999999,"lng":-71.0921463},{"address":"18 Saint James, Street Roxbury, MA 02119","lat":42.3260625,"lng":-71.0848166},{"address":"112 Humboldt Ave, Dorchester, MA 02121","lat":42.3164482,"lng":-71.08686089999999},{"address":"14 Rockland Street Roxbury, MA 02119","lat":42.32168,"lng":-71.083219},{"address":"455 Blue Hill Avenue, Dorchester, MA 02121","lat":42.3093304,"lng":-71.0831165},{"address":"615 Warren St, Dorchester, MA 02121","lat":42.3111373,"lng":-71.0834555},{"address":"336 Dudley Street, Roxbury, MA 02119","lat":42.3273581,"lng":-71.0765323},{"address":"94 Warren Street Roxbury MA 02119","lat":42.3272589,"lng":-71.082742},{"address":"551 Warren St, Dorchester MA 02121","lat":42.3127491,"lng":-71.0837233},{"address":"276 Blue Hil Ave, Boston MA 02123","lat":42.315045,"lng":-71.078231},{"address":"33 Elm Ave, Dorchester, MA 02121","lat":42.3123515,"lng":-71.0857142},{"address":"81 Walnut Aveune Roxbury, MA 02119","lat":42.3224254,"lng":-71.085304},{"address":"3 Regent Street, Roxbury, MA 02119","lat":42.3258293,"lng":-71.0838026},{"address":"270 Warren Street, Roxbury MA 0219","lat":42.3213247,"lng":-71.0814176},{"address":"8 Intervale St, Boston MA 02121","lat":42.3124015,"lng":-71.0819667},{"address":"14 Crawford St, Dorchester, MA 02121-3815","lat":42.3103908,"lng":-71.0842445},{"address":"10 E Cottage St, Boston, MA 02119","lat":42.3216096,"lng":-71.0715864},{"address":"102 Lawrence Ave, Boston, MA 02121","lat":42.3109285,"lng":-71.0747557},{"address":"28 Palmer St, Roxbury, MA 02119","lat":42.3302972,"lng":-71.0820749},{"address":"120 Walnut Avenue Roxbury MA 02119","lat":42.3205858,"lng":-71.0860221},{"address":"471 Warren St, Boston, MA 02121","lat":42.3151562,"lng":-71.08339029999999},{"address":"455 Blue Hill Ave, Roxbury, MA 02121-4301","lat":42.3093304,"lng":-71.0831165},{"address":"2566 Washington St, Roxbury, MA 02119","lat":42.3263864,"lng":-71.0873074},{"address":"203 Blue Hill Avenue, Boston, MA 02119","lat":42.3176573,"lng":-71.0782382},{"address":"10 Putnam Street Roxbury, MA 02119","lat":42.3299843,"lng":-71.0894447},{"address":"397 Blue Hill Ave, Dorchester MA 02121","lat":42.31136160000001,"lng":-71.0816272},{"address":"10 Parish St. Dorchester MA 02122","lat":42.3081896,"lng":-71.0620291},{"address":"84 Blue Hil Ave, Roxbury, MA 02119","lat":42.3221661,"lng":-71.07705779999999},{"address":"95 Freeport Street, Suite 2, Dorchester, MA 02122","lat":42.30524399999999,"lng":-71.05749229999999},{"address":"Po Box 191129 Roxbury MA 02119","lat":42.32182359999999,"lng":-71.08840359999999},{"address":"1900 Columbus Avenue Roxbury, MA 02119","lat":42.317188,"lng":-71.097966},{"address":"906 Albany St. Roxbury MA 02119","lat":42.3305706,"lng":-71.0772767},{"address":"70 Washington St, Dorchester, MA 02121","lat":42.3064394,"lng":-71.08129389999999},{"address":"14 Lambert Avenue Roxbury,MA 02119","lat":42.3288141,"lng":-71.0888509},{"address":"26 Waumbeck St, Roxbury, MA 02119","lat":42.3137731,"lng":-71.0862362},{"address":"428 Blue Hill Ave, Roxbury, MA 02130-2600","lat":42.3104396,"lng":-71.0816328},{"address":"367 Dudley St, Roxbury MA 02119","lat":42.3263191,"lng":-71.0758774},{"address":"165 Blue Hill Avenue Roxbury, MA 02119","lat":42.3192116,"lng":-71.07800449999999},{"address":"166 Blue Hill Avenue Roxbury, MA 02119","lat":42.318945,"lng":-71.0777591},{"address":"28 Moreland St Boston MA 02119","lat":42.3255862,"lng":-71.0812577},{"address":"36 Lawrence Ave, Boston MA 02121","lat":42.3127429,"lng":-71.0778351},{"address":"89 Munroe St Boston MA 02119","lat":42.31891890000001,"lng":-71.088391},{"address":"35 Intervale Street, Dorchester , MA 02121","lat":42.3116711,"lng":-71.08025119999999},{"address":"724 Shawmut Ave, Boston, MA 02119","lat":42.3327608,"lng":-71.0833037},{"address":"9 Otisfield St, Roxbury, MA 02121","lat":42.312744,"lng":-71.0809605},{"address":"10 Washington St, Dorchester, MA 02121","lat":42.3082999,"lng":-71.08272699999999},{"address":"66 Geneva Ave, Dorchester MA 02121","lat":42.3078774,"lng":-71.080096},{"address":"27 Howland St, Roxburym MA 02121","lat":42.3126701,"lng":-71.08541629999999},{"address":"232 Columbia Road, Dorchester, MA 02121","lat":42.3077984,"lng":-71.07606249999999},{"address":"263 Eustic St., Roxbury, MA 02119","lat":42.3263744,"lng":-71.0747318},{"address":"3134 Washington St, Roxbury MA 02119","lat":42.314093,"lng":-71.09944},{"address":"155 Humboldt Ave, Dorchester MA 02121","lat":42.31453519999999,"lng":-71.0886752},{"address":"328 Warren Street Roxbury, MA 02119","lat":42.319512,"lng":-71.081113},{"address":"547 Dudley St, Roxbury Ma 02119","lat":42.3215147,"lng":-71.0723391},{"address":"165 Blue Hill Avenue Roxbury, MA 02119","lat":42.3192116,"lng":-71.07800449999999},{"address":"46 Millmont Street, Roxbury MA 02119","lat":42.3276303,"lng":-71.09051749999999},{"address":"37 Winthrop Street Roxbury, MA 02119","lat":42.325886,"lng":-71.08079099999999},{"address":"94 Warren St, Boston, MA 02119","lat":42.3272589,"lng":-71.082742},{"address":"2 Otisfield Street, Boston, MA 02121","lat":42.3131105,"lng":-71.0808041},{"address":"85 Regent Street, Roxbury, MA 02119","lat":42.32377229999999,"lng":-71.0873608},{"address":"236 Blue Hill Aveune Roxbury, MA 02119","lat":42.3165641,"lng":-71.0780134},{"address":"46 Forest St, Roxbury, MA 02119","lat":42.3267124,"lng":-71.07734479999999},{"address":"147 Moreland Street, Roxbury, MA 02119","lat":42.3220755,"lng":-71.0746486},{"address":"29 Winthrop Street, Roxbury, MA 02119","lat":42.3260837,"lng":-71.08169529999999},{"address":"200 Townsend St, Dorchster, MA 02121","lat":42.3171251,"lng":-71.0860237},{"address":"377 Walnut Ave, Roxbury MA 02119","lat":42.313731,"lng":-71.09498099999999},{"address":"10 Magazine St, Roxbury, MA 02119","lat":42.3256457,"lng":-71.0745948},{"address":"50 Cedar St, Roxbury, MA 02119","lat":42.324866,"lng":-71.091388},{"address":"230 Warren St, Roxbury, MA 02119","lat":42.3229634,"lng":-71.0818651},{"address":"517 Blue Hill Ave, Boston, MA","lat":42.307474,"lng":-71.084468},{"address":"73 Columbia Rd, Boston MA 02121","lat":42.3042004,"lng":-71.0817862},{"address":"99 Wayland St, Boston, MA 02125","lat":42.3142288,"lng":-71.0762534},{"address":"400 Dudley St, Roxbury, MA 02119","lat":42.3254271,"lng":-71.0750255},{"address":"115 Warren Street, Roxbury, MA 02119","lat":42.3267945,"lng":-71.0837609},{"address":"26 Winthrop St, Roxbury, MA 02119","lat":42.3265213,"lng":-71.08159169999999},{"address":"62 Batchelder St, Roxbury, MA 02119","lat":42.3230394,"lng":-71.0693683},{"address":"56 Dale St, Roxbury, MA 02119","lat":42.32092189999999,"lng":-71.0855287},{"address":"35 Highland Avenue, Roxbury MA 02119","lat":42.3292135,"lng":-71.092967},{"address":"150 Warren Street Roxbury, MA 02119","lat":42.3253335,"lng":-71.0828196},{"address":"24 Farnsworth St, Boston, MA 02210","lat":42.3516038,"lng":-71.048609},{"address":"116 Roxbury Street, Roxbury MA 02119","lat":42.3305046,"lng":-71.0883667},{"address":"206 Seaver St, Dorchester MA 02121","lat":42.3078803,"lng":-71.0882584},{"address":"334 Warren Street, Roxbury, MA","lat":42.31931429999999,"lng":-71.0812978},{"address":"120 Amory Street, Roxbury, MA 02119","lat":42.31907100000001,"lng":-71.100278},{"address":"165 Dudley St, Roxbury MA 02119","lat":42.328356,"lng":-71.0825792},{"address":"Barry Hynes (President's assistant) 150 Morrissey Boulevard Boston MA 02125"},{"address":"20 Kearsage Ave, Roxbury MA 02119","lat":42.327022,"lng":-71.0817158},{"address":"205 Townsend Street, Boston, 02121","lat":42.316794,"lng":-71.0847574},{"address":"11 Charles St, Dorchester, MA 02122","lat":42.3008814,"lng":-71.0617324},{"address":"60 Washington St. Dorchester, MA 02121","lat":42.3071524,"lng":-71.08116199999999},{"address":"1669 Dorchester Ave. Dorchester MA 02122","lat":42.2939179,"lng":-71.0620115},{"address":"60 Washington St. Dorchester, MA 02121","lat":42.3071524,"lng":-71.08116199999999},{"address":"2315 Washington Street Roxbury, MA 02119","lat":42.3301945,"lng":-71.0846455},{"address":"56 Warren Steet Boston, MA 02119","lat":42.3288521,"lng":-71.08321149999999},{"address":"500 Columbia Rd. Dorchester, MA 02125","lat":42.314827,"lng":-71.0676259},{"address":"1483 Tremont Street Boston, MA 02120","lat":42.3324184,"lng":-71.0982319},{"address":""},{"address":"1483 Tremont St Roxbury, MA 02120","lat":42.3324184,"lng":-71.0982319},{"address":"Teen Center at St. Peter's 278 Bowdoin St. Dorchester, MA 02122","lat":42.3075765,"lng":-71.0667733},{"address":"Tiffany Macon 20 Nonantum Road Brighton, MA 02135"},{"address":""},{"address":"405 Shawmut Ave.,Boston, MA 02118","lat":42.3406386,"lng":-71.0735321},{"address":"360  Merrimack Street Building 9, Entry K, 3rd Floor Lawrence, MA 01843","lat":42.7036089,"lng":-71.1435363},{"address":"7 Palmer Street, Roxbury, MA 02119","lat":42.3303947,"lng":-71.0826993}]}
